[
    {
      "stop_id": "3280",
      "stop_lat": "13.0102899391",
      "stop_lon": "77.5839466788",
      "stop_name": "Palace Ground",
      "stop_code": null,
      "stop_desc": null,
      "stop_timezone": null,
      "stop_url": null,
      "wheelchair_boarding": null,
      "zone_id": null
    },
    {
      "stop_id": "3282",
      "stop_lat": "12.9679567997",
      "stop_lon": "77.59154125772",
      "stop_name": "Pallavi Talkies",
      "stop_code": null,
      "stop_desc": null,
      "stop_timezone": null,
      "stop_url": null,
      "wheelchair_boarding": null,
      "zone_id": null
    },
    {
      "stop_id": "3281",
      "stop_lat": "13.1168614208569",
      "stop_lon": "77.6083756888998",
      "stop_name": "Palanahalli Gate",
      "stop_code": null,
      "stop_desc": null,
      "stop_timezone": null,
      "stop_url": null,
      "wheelchair_boarding": null,
      "zone_id": null
    },
    {
      "stop_id": "3283",
      "stop_lat": "12.96779334",
      "stop_lon": "77.59094079",
      "stop_name": "Pallavi Theatre",
      "stop_code": null,
      "stop_desc": null,
      "stop_timezone": null,
      "stop_url": null,
      "wheelchair_boarding": null,
      "zone_id": null
    },
    {
      "stop_id": "3288",
      "stop_lat": "12.9364796304737",
      "stop_lon": "77.7037220554744",
      "stop_name": "Panathuru",
      "stop_code": null,
      "stop_desc": null,
      "stop_timezone": null,
      "stop_url": null,
      "wheelchair_boarding": null,
      "zone_id": null
    },
    {
      "stop_id": "3287",
      "stop_lat": "12.93562",
      "stop_lon": "77.70608",
      "stop_name": "Panathur",
      "stop_code": null,
      "stop_desc": null,
      "stop_timezone": null,
      "stop_url": null,
      "wheelchair_boarding": null,
      "zone_id": null
    },
    {
      "stop_id": "3278",
      "stop_lat": "12.91696",
      "stop_lon": "77.55939",
      "stop_name": "Padmanabhanagara Circle",
      "stop_code": null,
      "stop_desc": null,
      "stop_timezone": null,
      "stop_url": null,
      "wheelchair_boarding": null,
      "zone_id": null
    },
    {
      "stop_id": "3279",
      "stop_lat": "12.896391",
      "stop_lon": "77.548255",
      "stop_name": "Paduka mandira",
      "stop_code": null,
      "stop_desc": null,
      "stop_timezone": null,
      "stop_url": null,
      "wheelchair_boarding": null,
      "zone_id": null
    },
    {
      "stop_id": "2950",
      "stop_lat": "12.92863",
      "stop_lon": "77.53656",
      "stop_name": "Mukambika Nagar",
      "stop_code": null,
      "stop_desc": null,
      "stop_timezone": null,
      "stop_url": null,
      "wheelchair_boarding": null,
      "zone_id": null
    },
    {
      "stop_id": "2953",
      "stop_lat": "12.90448270514",
      "stop_lon": "77.7245557788728",
      "stop_name": "Mullur",
      "stop_code": null,
      "stop_desc": null,
      "stop_timezone": null,
      "stop_url": null,
      "wheelchair_boarding": null,
      "zone_id": null
    },
    {
      "stop_id": "534",
      "stop_lat": "12.822514",
      "stop_lon": "77.572508",
      "stop_name": "bilwaradahalli cross",
      "stop_code": null,
      "stop_desc": null,
      "stop_timezone": null,
      "stop_url": null,
      "wheelchair_boarding": null,
      "zone_id": null
    },
    {
      "stop_id": "2955",
      "stop_lat": "12.861288269082",
      "stop_lon": "77.7323076942429",
      "stop_name": "Muneshawara Temple",
      "stop_code": null,
      "stop_desc": null,
      "stop_timezone": null,
      "stop_url": null,
      "wheelchair_boarding": null,
      "zone_id": null
    },
    {
      "stop_id": "2954",
      "stop_lat": "12.95156",
      "stop_lon": "77.6997",
      "stop_name": "Multiplex Marathahalli",
      "stop_code": null,
      "stop_desc": null,
      "stop_timezone": null,
      "stop_url": null,
      "wheelchair_boarding": null,
      "zone_id": null
    },
    {
      "stop_id": "539",
      "stop_lat": "12.9703122636887",
      "stop_lon": "77.5462341448938",
      "stop_name": "Binni Layout",
      "stop_code": null,
      "stop_desc": null,
      "stop_timezone": null,
      "stop_url": null,
      "wheelchair_boarding": null,
      "zone_id": null
    },
    {
      "stop_id": "1825",
      "stop_lat": "12.9646651447",
      "stop_lon": "77.5549010374",
      "stop_name": "Jagajeevanram Nagara",
      "stop_code": null,
      "stop_desc": null,
      "stop_timezone": null,
      "stop_url": null,
      "wheelchair_boarding": null,
      "zone_id": null
    },
    {
      "stop_id": "2957",
      "stop_lat": "13.0181535316902",
      "stop_lon": "77.6718515332859",
      "stop_name": "Muneshwara Layout",
      "stop_code": null,
      "stop_desc": null,
      "stop_timezone": null,
      "stop_url": null,
      "wheelchair_boarding": null,
      "zone_id": null
    },
    {
      "stop_id": "1826",
      "stop_lat": "13.10642",
      "stop_lon": "77.57682",
      "stop_name": "Jagath Pharma",
      "stop_code": null,
      "stop_desc": null,
      "stop_timezone": null,
      "stop_url": null,
      "wheelchair_boarding": null,
      "zone_id": null
    },
    {
      "stop_id": "2956",
      "stop_lat": "12.9423299711",
      "stop_lon": "77.5486286078",
      "stop_name": "Muneshwara Block",
      "stop_code": null,
      "stop_desc": null,
      "stop_timezone": null,
      "stop_url": null,
      "wheelchair_boarding": null,
      "zone_id": null
    },
    {
      "stop_id": "1823",
      "stop_lat": "12.967742",
      "stop_lon": "77.593529",
      "stop_name": "Jagadale Industries Pvt Ltd",
      "stop_code": null,
      "stop_desc": null,
      "stop_timezone": null,
      "stop_url": null,
      "wheelchair_boarding": null,
      "zone_id": null
    },
    {
      "stop_id": "2959",
      "stop_lat": "12.9362709448",
      "stop_lon": "77.6071822364",
      "stop_name": "Muneshwara Temple",
      "stop_code": null,
      "stop_desc": null,
      "stop_timezone": null,
      "stop_url": null,
      "wheelchair_boarding": null,
      "zone_id": null
    },
    {
      "stop_id": "536",
      "stop_lat": "12.8260427913301",
      "stop_lon": "77.6325962701592",
      "stop_name": "Bingipura",
      "stop_code": null,
      "stop_desc": null,
      "stop_timezone": null,
      "stop_url": null,
      "wheelchair_boarding": null,
      "zone_id": null
    },
    {
      "stop_id": "1824",
      "stop_lat": "12.9714645445",
      "stop_lon": "77.6656620204",
      "stop_name": "Jagadeesha nagar",
      "stop_code": null,
      "stop_desc": null,
      "stop_timezone": null,
      "stop_url": null,
      "wheelchair_boarding": null,
      "zone_id": null
    },
    {
      "stop_id": "2958",
      "stop_lat": "12.9294365924",
      "stop_lon": "77.5350315683",
      "stop_name": "Muneshwara nagara Kerekodi",
      "stop_code": null,
      "stop_desc": null,
      "stop_timezone": null,
      "stop_url": null,
      "wheelchair_boarding": null,
      "zone_id": null
    },
    {
      "stop_id": "1829",
      "stop_lat": "13.0147913433517",
      "stop_lon": "77.530837728718",
      "stop_name": "Jai Bhuvaneshwari Nagara",
      "stop_code": null,
      "stop_desc": null,
      "stop_timezone": null,
      "stop_url": null,
      "wheelchair_boarding": null,
      "zone_id": null
    },
    {
      "stop_id": "1827",
      "stop_lat": "12.890774",
      "stop_lon": "77.455167",
      "stop_name": "Jaggath Pharma",
      "stop_code": null,
      "stop_desc": null,
      "stop_timezone": null,
      "stop_url": null,
      "wheelchair_boarding": null,
      "zone_id": null
    },
    {
      "stop_id": "1828",
      "stop_lat": "13.0017114730752",
      "stop_lon": "77.6309928117633",
      "stop_name": "Jai Bharath Nagara",
      "stop_code": null,
      "stop_desc": null,
      "stop_timezone": null,
      "stop_url": null,
      "wheelchair_boarding": null,
      "zone_id": null
    },
    {
      "stop_id": "3290",
      "stop_lat": "12.9744004002063",
      "stop_lon": "77.5208301886565",
      "stop_name": "Panchsheela Nagara",
      "stop_code": null,
      "stop_desc": null,
      "stop_timezone": null,
      "stop_url": null,
      "wheelchair_boarding": null,
      "zone_id": null
    },
    {
      "stop_id": "3293",
      "stop_lat": "12.945161",
      "stop_lon": "77.528686",
      "stop_name": "Pantarapalya",
      "stop_code": null,
      "stop_desc": null,
      "stop_timezone": null,
      "stop_url": null,
      "wheelchair_boarding": null,
      "zone_id": null
    },
    {
      "stop_id": "3",
      "stop_lat": "12.9949776158498",
      "stop_lon": "77.6770919973125",
      "stop_name": "A Narayanapura",
      "stop_code": null,
      "stop_desc": null,
      "stop_timezone": null,
      "stop_url": null,
      "wheelchair_boarding": null,
      "zone_id": null
    },
    {
      "stop_id": "540",
      "stop_lat": "12.970804302",
      "stop_lon": "77.5664395653",
      "stop_name": "Binni Mill",
      "stop_code": null,
      "stop_desc": null,
      "stop_timezone": null,
      "stop_url": null,
      "wheelchair_boarding": null,
      "zone_id": null
    },
    {
      "stop_id": "2",
      "stop_lat": "13.0452256562",
      "stop_lon": "77.50835934429",
      "stop_name": "8th Mile",
      "stop_code": null,
      "stop_desc": null,
      "stop_timezone": null,
      "stop_url": null,
      "wheelchair_boarding": null,
      "zone_id": null
    },
    {
      "stop_id": "3289",
      "stop_lat": "12.9297681000818",
      "stop_lon": "77.7121410524843",
      "stop_name": "Panathuru Dinne",
      "stop_code": null,
      "stop_desc": null,
      "stop_timezone": null,
      "stop_url": null,
      "wheelchair_boarding": null,
      "zone_id": null
    },
    {
      "stop_id": "1",
      "stop_lat": "13.102396",
      "stop_lon": "77.576741",
      "stop_name": "6th Cross Road Junction",
      "stop_code": null,
      "stop_desc": null,
      "stop_timezone": null,
      "stop_url": null,
      "wheelchair_boarding": null,
      "zone_id": null
    },
    {
      "stop_id": "542",
      "stop_lat": "12.968101",
      "stop_lon": "77.568104",
      "stop_name": "Binny Mill",
      "stop_code": null,
      "stop_desc": null,
      "stop_timezone": null,
      "stop_url": null,
      "wheelchair_boarding": null,
      "zone_id": null
    },
    {
      "stop_id": "541",
      "stop_lat": "12.9645654560795",
      "stop_lon": "77.5618709051194",
      "stop_name": "Binni Pete",
      "stop_code": null,
      "stop_desc": null,
      "stop_timezone": null,
      "stop_url": null,
      "wheelchair_boarding": null,
      "zone_id": null
    },
    {
      "stop_id": "7",
      "stop_lat": "13.0724231985491",
      "stop_lon": "77.5235847202901",
      "stop_name": "Abbigere",
      "stop_code": null,
      "stop_desc": null,
      "stop_timezone": null,
      "stop_url": null,
      "wheelchair_boarding": null,
      "zone_id": null
    },
    {
      "stop_id": "544",
      "stop_lat": "13.0655126668075",
      "stop_lon": "77.4940164842191",
      "stop_name": "Bireshwara Circle",
      "stop_code": null,
      "stop_desc": null,
      "stop_timezone": null,
      "stop_url": null,
      "wheelchair_boarding": null,
      "zone_id": null
    },
    {
      "stop_id": "2944",
      "stop_lat": "12.966375",
      "stop_lon": "77.487767",
      "stop_name": "Muddana Palya",
      "stop_code": null,
      "stop_desc": null,
      "stop_timezone": null,
      "stop_url": null,
      "wheelchair_boarding": null,
      "zone_id": null
    },
    {
      "stop_id": "543",
      "stop_lat": "12.8078410603733",
      "stop_lon": "77.663669167582",
      "stop_name": "BIOCON",
      "stop_code": null,
      "stop_desc": null,
      "stop_timezone": null,
      "stop_url": null,
      "wheelchair_boarding": null,
      "zone_id": null
    },
    {
      "stop_id": "2943",
      "stop_lat": "13.006523",
      "stop_lon": "77.598092",
      "stop_name": "Muddamma Garden",
      "stop_code": null,
      "stop_desc": null,
      "stop_timezone": null,
      "stop_url": null,
      "wheelchair_boarding": null,
      "zone_id": null
    },
    {
      "stop_id": "5",
      "stop_lat": "12.9792462946033",
      "stop_lon": "77.6807273279197",
      "stop_name": "Abbaiah Layout",
      "stop_code": null,
      "stop_desc": null,
      "stop_timezone": null,
      "stop_url": null,
      "wheelchair_boarding": null,
      "zone_id": null
    },
    {
      "stop_id": "1810",
      "stop_lat": "13.1024388086824",
      "stop_lon": "77.6289577428159",
      "stop_name": "Ittige Factory Yalahanka",
      "stop_code": null,
      "stop_desc": null,
      "stop_timezone": null,
      "stop_url": null,
      "wheelchair_boarding": null,
      "zone_id": null
    },
    {
      "stop_id": "2942",
      "stop_lat": "12.971697",
      "stop_lon": "77.487854",
      "stop_name": "Muddaiahnapalya",
      "stop_code": null,
      "stop_desc": null,
      "stop_timezone": null,
      "stop_url": null,
      "wheelchair_boarding": null,
      "zone_id": null
    },
    {
      "stop_id": "1811",
      "stop_lat": "12.830381",
      "stop_lon": "77.701081",
      "stop_name": "Ittina Neela Apartment",
      "stop_code": null,
      "stop_desc": null,
      "stop_timezone": null,
      "stop_url": null,
      "wheelchair_boarding": null,
      "zone_id": null
    },
    {
      "stop_id": "548",
      "stop_lat": "12.8737637765734",
      "stop_lon": "77.4483757361217",
      "stop_name": "Biscuit Factory Mysore Road",
      "stop_code": null,
      "stop_desc": null,
      "stop_timezone": null,
      "stop_url": null,
      "wheelchair_boarding": null,
      "zone_id": null
    },
    {
      "stop_id": "2948",
      "stop_lat": "13.1183294525802",
      "stop_lon": "77.8869208930554",
      "stop_name": "Mugabala",
      "stop_code": null,
      "stop_desc": null,
      "stop_timezone": null,
      "stop_url": null,
      "wheelchair_boarding": null,
      "zone_id": null
    },
    {
      "stop_id": "547",
      "stop_lat": "13.08029868166",
      "stop_lon": "77.4505070401223",
      "stop_name": "BISCUIT FACTORY",
      "stop_code": null,
      "stop_desc": null,
      "stop_timezone": null,
      "stop_url": null,
      "wheelchair_boarding": null,
      "zone_id": null
    },
    {
      "stop_id": "1813",
      "stop_lat": "13.1376227182749",
      "stop_lon": "77.4945140443817",
      "stop_name": "Ivara Kondapura",
      "stop_code": null,
      "stop_desc": null,
      "stop_timezone": null,
      "stop_url": null,
      "wheelchair_boarding": null,
      "zone_id": null
    },
    {
      "stop_id": "2947",
      "stop_lat": "13.0950354226",
      "stop_lon": "77.332489416",
      "stop_name": "Mudla Palya",
      "stop_code": null,
      "stop_desc": null,
      "stop_timezone": null,
      "stop_url": null,
      "wheelchair_boarding": null,
      "zone_id": null
    },
    {
      "stop_id": "9",
      "stop_lat": "13.0711106211",
      "stop_lon": "77.5276539847",
      "stop_name": "Abbigere Dinne",
      "stop_code": null,
      "stop_desc": null,
      "stop_timezone": null,
      "stop_url": null,
      "wheelchair_boarding": null,
      "zone_id": null
    },
    {
      "stop_id": "1814",
      "stop_lat": "12.9424391873",
      "stop_lon": "77.6968789101",
      "stop_name": "J P Margen",
      "stop_code": null,
      "stop_desc": null,
      "stop_timezone": null,
      "stop_url": null,
      "wheelchair_boarding": null,
      "zone_id": null
    },
    {
      "stop_id": "2946",
      "stop_lat": "12.9318054859",
      "stop_lon": "77.4172528367",
      "stop_name": "Muddayyanapalya",
      "stop_code": null,
      "stop_desc": null,
      "stop_timezone": null,
      "stop_url": null,
      "wheelchair_boarding": null,
      "zone_id": null
    },
    {
      "stop_id": "8",
      "stop_lat": "13.0706784502",
      "stop_lon": "77.5295286812",
      "stop_name": "Abbigere Cross",
      "stop_code": null,
      "stop_desc": null,
      "stop_timezone": null,
      "stop_url": null,
      "wheelchair_boarding": null,
      "zone_id": null
    },
    {
      "stop_id": "549",
      "stop_lat": "12.9868375839954",
      "stop_lon": "77.8162633306138",
      "stop_name": "Biscuits Factory",
      "stop_code": null,
      "stop_desc": null,
      "stop_timezone": null,
      "stop_url": null,
      "wheelchair_boarding": null,
      "zone_id": null
    },
    {
      "stop_id": "1815",
      "stop_lat": "12.942131",
      "stop_lon": "77.696948",
      "stop_name": "J P Morgan Kadabisanahalli",
      "stop_code": null,
      "stop_desc": null,
      "stop_timezone": null,
      "stop_url": null,
      "wheelchair_boarding": null,
      "zone_id": null
    },
    {
      "stop_id": "1816",
      "stop_lat": "12.870733",
      "stop_lon": "77.583145",
      "stop_name": "J P Nagara 7th Phase B K Circle",
      "stop_code": null,
      "stop_desc": null,
      "stop_timezone": null,
      "stop_url": null,
      "wheelchair_boarding": null,
      "zone_id": null
    },
    {
      "stop_id": "1817",
      "stop_lat": "12.8647826742382",
      "stop_lon": "77.5629998408975",
      "stop_name": "J Srinivasa Reddy Layout",
      "stop_code": null,
      "stop_desc": null,
      "stop_timezone": null,
      "stop_url": null,
      "wheelchair_boarding": null,
      "zone_id": null
    },
    {
      "stop_id": "1818",
      "stop_lat": "13.0526205679014",
      "stop_lon": "77.8538390734881",
      "stop_name": "Jadagenahalli",
      "stop_code": null,
      "stop_desc": null,
      "stop_timezone": null,
      "stop_url": null,
      "wheelchair_boarding": null,
      "zone_id": null
    },
    {
      "stop_id": "1819",
      "stop_lat": "12.8395056528982",
      "stop_lon": "77.3963601364551",
      "stop_name": "Jadenahalli",
      "stop_code": null,
      "stop_desc": null,
      "stop_timezone": null,
      "stop_url": null,
      "wheelchair_boarding": null,
      "zone_id": null
    },
    {
      "stop_id": "2949",
      "stop_lat": "12.8941507502225",
      "stop_lon": "77.824167150998",
      "stop_name": "Mugaluru",
      "stop_code": null,
      "stop_desc": null,
      "stop_timezone": null,
      "stop_url": null,
      "wheelchair_boarding": null,
      "zone_id": null
    },
    {
      "stop_id": "2980",
      "stop_lat": "13.14934",
      "stop_lon": "77.505176",
      "stop_name": "Muthkur Cross",
      "stop_code": null,
      "stop_desc": null,
      "stop_timezone": null,
      "stop_url": null,
      "wheelchair_boarding": null,
      "zone_id": null
    },
    {
      "stop_id": "1843",
      "stop_lat": "13.03997892",
      "stop_lon": "77.51863784",
      "stop_name": "Jalahalli Cross",
      "stop_code": null,
      "stop_desc": null,
      "stop_timezone": null,
      "stop_url": null,
      "wheelchair_boarding": null,
      "zone_id": null
    },
    {
      "stop_id": "2975",
      "stop_lat": "13.0107233428943",
      "stop_lon": "77.6152363317099",
      "stop_name": "Muslim Colony Kadugondanahalli",
      "stop_code": null,
      "stop_desc": null,
      "stop_timezone": null,
      "stop_url": null,
      "wheelchair_boarding": null,
      "zone_id": null
    },
    {
      "stop_id": "1844",
      "stop_lat": "13.0461469665",
      "stop_lon": "77.5224152114",
      "stop_name": "Jalahalli Cross Ayyappa Temple",
      "stop_code": null,
      "stop_desc": null,
      "stop_timezone": null,
      "stop_url": null,
      "wheelchair_boarding": null,
      "zone_id": null
    },
    {
      "stop_id": "2974",
      "stop_lat": "13.010789242964",
      "stop_lon": "77.6153852432816",
      "stop_name": "Muslim Colony",
      "stop_code": null,
      "stop_desc": null,
      "stop_timezone": null,
      "stop_url": null,
      "wheelchair_boarding": null,
      "zone_id": null
    },
    {
      "stop_id": "1841",
      "stop_lat": "13.068748090511",
      "stop_lon": "77.6034340882314",
      "stop_name": "Jakkur Layout Cross",
      "stop_code": null,
      "stop_desc": null,
      "stop_timezone": null,
      "stop_url": null,
      "wheelchair_boarding": null,
      "zone_id": null
    },
    {
      "stop_id": "2977",
      "stop_lat": "12.8322209515984",
      "stop_lon": "77.7344548994594",
      "stop_name": "Muthanallur",
      "stop_code": null,
      "stop_desc": null,
      "stop_timezone": null,
      "stop_url": null,
      "wheelchair_boarding": null,
      "zone_id": null
    },
    {
      "stop_id": "1842",
      "stop_lat": "12.92398165",
      "stop_lon": "77.60022159",
      "stop_name": "Jal Bhavan",
      "stop_code": null,
      "stop_desc": null,
      "stop_timezone": null,
      "stop_url": null,
      "wheelchair_boarding": null,
      "zone_id": null
    },
    {
      "stop_id": "2976",
      "stop_lat": "13.1550826800142",
      "stop_lon": "77.5364074379665",
      "stop_name": "MUTHAGADAHALLI CROSS",
      "stop_code": null,
      "stop_desc": null,
      "stop_timezone": null,
      "stop_url": null,
      "wheelchair_boarding": null,
      "zone_id": null
    },
    {
      "stop_id": "2971",
      "stop_lat": "12.95935465",
      "stop_lon": "77.65706544",
      "stop_name": "Murgeshpalya",
      "stop_code": null,
      "stop_desc": null,
      "stop_timezone": null,
      "stop_url": null,
      "wheelchair_boarding": null,
      "zone_id": null
    },
    {
      "stop_id": "1840",
      "stop_lat": "13.06952",
      "stop_lon": "77.60158",
      "stop_name": "Jakkur Layout",
      "stop_code": null,
      "stop_desc": null,
      "stop_timezone": null,
      "stop_url": null,
      "wheelchair_boarding": null,
      "zone_id": null
    },
    {
      "stop_id": "2973",
      "stop_lat": "12.97385356",
      "stop_lon": "77.59541642",
      "stop_name": "Museum Kasturba Road",
      "stop_code": null,
      "stop_desc": null,
      "stop_timezone": null,
      "stop_url": null,
      "wheelchair_boarding": null,
      "zone_id": null
    },
    {
      "stop_id": "2972",
      "stop_lat": "12.9591727",
      "stop_lon": "77.65611687",
      "stop_name": "Murugeshpalya",
      "stop_code": null,
      "stop_desc": null,
      "stop_timezone": null,
      "stop_url": null,
      "wheelchair_boarding": null,
      "zone_id": null
    },
    {
      "stop_id": "519",
      "stop_lat": "13.06254",
      "stop_lon": "77.59305",
      "stop_name": "Big Market Sahakara Nagara",
      "stop_code": null,
      "stop_desc": null,
      "stop_timezone": null,
      "stop_url": null,
      "wheelchair_boarding": null,
      "zone_id": null
    },
    {
      "stop_id": "1849",
      "stop_lat": "13.050582",
      "stop_lon": "77.535969",
      "stop_name": "Jalahalli Quarters",
      "stop_code": null,
      "stop_desc": null,
      "stop_timezone": null,
      "stop_url": null,
      "wheelchair_boarding": null,
      "zone_id": null
    },
    {
      "stop_id": "518",
      "stop_lat": "12.988111086362",
      "stop_lon": "77.7314937095452",
      "stop_name": "Big Bazaar",
      "stop_code": null,
      "stop_desc": null,
      "stop_timezone": null,
      "stop_url": null,
      "wheelchair_boarding": null,
      "zone_id": null
    },
    {
      "stop_id": "1847",
      "stop_lat": "13.073281",
      "stop_lon": "77.546409",
      "stop_name": "Jalahalli Guard Room",
      "stop_code": null,
      "stop_desc": null,
      "stop_timezone": null,
      "stop_url": null,
      "wheelchair_boarding": null,
      "zone_id": null
    },
    {
      "stop_id": "2979",
      "stop_lat": "12.9564649973483",
      "stop_lon": "77.8062035767728",
      "stop_name": "Muthkur",
      "stop_code": null,
      "stop_desc": null,
      "stop_timezone": null,
      "stop_url": null,
      "wheelchair_boarding": null,
      "zone_id": null
    },
    {
      "stop_id": "1848",
      "stop_lat": "13.0487686290118",
      "stop_lon": "77.5504553531453",
      "stop_name": "Jalahalli Police Station",
      "stop_code": null,
      "stop_desc": null,
      "stop_timezone": null,
      "stop_url": null,
      "wheelchair_boarding": null,
      "zone_id": null
    },
    {
      "stop_id": "2978",
      "stop_lat": "12.8432884812",
      "stop_lon": "77.7274866868",
      "stop_name": "Muthanallur Circle",
      "stop_code": null,
      "stop_desc": null,
      "stop_timezone": null,
      "stop_url": null,
      "wheelchair_boarding": null,
      "zone_id": null
    },
    {
      "stop_id": "1845",
      "stop_lat": "13.069327892592",
      "stop_lon": "77.5445883816951",
      "stop_name": "Jalahalli East",
      "stop_code": null,
      "stop_desc": null,
      "stop_timezone": null,
      "stop_url": null,
      "wheelchair_boarding": null,
      "zone_id": null
    },
    {
      "stop_id": "1846",
      "stop_lat": "13.07363",
      "stop_lon": "77.54601",
      "stop_name": "Jalahalli East Area 7th camp",
      "stop_code": null,
      "stop_desc": null,
      "stop_timezone": null,
      "stop_url": null,
      "wheelchair_boarding": null,
      "zone_id": null
    },
    {
      "stop_id": "522",
      "stop_lat": "12.90018957",
      "stop_lon": "77.60086055",
      "stop_name": "Bilekalli",
      "stop_code": null,
      "stop_desc": null,
      "stop_timezone": null,
      "stop_url": null,
      "wheelchair_boarding": null,
      "zone_id": null
    },
    {
      "stop_id": "1830",
      "stop_lat": "13.014604",
      "stop_lon": "77.530751",
      "stop_name": "Jai Bhuvaneshwarinagara",
      "stop_code": null,
      "stop_desc": null,
      "stop_timezone": null,
      "stop_url": null,
      "wheelchair_boarding": null,
      "zone_id": null
    },
    {
      "stop_id": "2966",
      "stop_lat": "13.044012",
      "stop_lon": "77.490612",
      "stop_name": "Muniswamappa Layout",
      "stop_code": null,
      "stop_desc": null,
      "stop_timezone": null,
      "stop_url": null,
      "wheelchair_boarding": null,
      "zone_id": null
    },
    {
      "stop_id": "1831",
      "stop_lat": "13.009922606332461",
      "stop_lon": "77.5326776371353",
      "stop_name": "Jai Maruthi Nagara",
      "stop_code": null,
      "stop_desc": null,
      "stop_timezone": null,
      "stop_url": null,
      "wheelchair_boarding": null,
      "zone_id": null
    },
    {
      "stop_id": "2965",
      "stop_lat": "12.97704662",
      "stop_lon": "77.75092716",
      "stop_name": "Munish Hospital",
      "stop_code": null,
      "stop_desc": null,
      "stop_timezone": null,
      "stop_url": null,
      "wheelchair_boarding": null,
      "zone_id": null
    },
    {
      "stop_id": "524",
      "stop_lat": "13.0544839033238",
      "stop_lon": "77.670943311041",
      "stop_name": "Bileshivale",
      "stop_code": null,
      "stop_desc": null,
      "stop_timezone": null,
      "stop_url": null,
      "wheelchair_boarding": null,
      "zone_id": null
    },
    {
      "stop_id": "1832",
      "stop_lat": "12.9193948909708",
      "stop_lon": "77.6151009374951",
      "stop_name": "Jaibheemanagara",
      "stop_code": null,
      "stop_desc": null,
      "stop_timezone": null,
      "stop_url": null,
      "wheelchair_boarding": null,
      "zone_id": null
    },
    {
      "stop_id": "2964",
      "stop_lat": "13.00695655",
      "stop_lon": "77.59247657",
      "stop_name": "Munireddy Palya",
      "stop_code": null,
      "stop_desc": null,
      "stop_timezone": null,
      "stop_url": null,
      "wheelchair_boarding": null,
      "zone_id": null
    },
    {
      "stop_id": "523",
      "stop_lat": "12.89712",
      "stop_lon": "77.60612",
      "stop_name": "Bilekalli Village",
      "stop_code": null,
      "stop_desc": null,
      "stop_timezone": null,
      "stop_url": null,
      "wheelchair_boarding": null,
      "zone_id": null
    },
    {
      "stop_id": "1833",
      "stop_lat": "13.009836365449326",
      "stop_lon": "77.53276615003278",
      "stop_name": "JaiMaruthinagara",
      "stop_code": null,
      "stop_desc": null,
      "stop_timezone": null,
      "stop_url": null,
      "wheelchair_boarding": null,
      "zone_id": null
    },
    {
      "stop_id": "1838",
      "stop_lat": "12.92512051",
      "stop_lon": "77.63691743",
      "stop_name": "Jakkasandra",
      "stop_code": null,
      "stop_desc": null,
      "stop_timezone": null,
      "stop_url": null,
      "wheelchair_boarding": null,
      "zone_id": null
    },
    {
      "stop_id": "1839",
      "stop_lat": "13.079371665682",
      "stop_lon": "77.6075778640694",
      "stop_name": "Jakkur",
      "stop_code": null,
      "stop_desc": null,
      "stop_timezone": null,
      "stop_url": null,
      "wheelchair_boarding": null,
      "zone_id": null
    },
    {
      "stop_id": "1834",
      "stop_lat": "12.882633",
      "stop_lon": "77.425098",
      "stop_name": "Jaipura",
      "stop_code": null,
      "stop_desc": null,
      "stop_timezone": null,
      "stop_url": null,
      "wheelchair_boarding": null,
      "zone_id": null
    },
    {
      "stop_id": "2969",
      "stop_lat": "12.9523020051",
      "stop_lon": "77.7062292583",
      "stop_name": "Munnekolalu Cross",
      "stop_code": null,
      "stop_desc": null,
      "stop_timezone": null,
      "stop_url": null,
      "wheelchair_boarding": null,
      "zone_id": null
    },
    {
      "stop_id": "1836",
      "stop_lat": "13.1803957221718",
      "stop_lon": "77.3456935027048",
      "stop_name": "Jakkanahalli",
      "stop_code": null,
      "stop_desc": null,
      "stop_timezone": null,
      "stop_url": null,
      "wheelchair_boarding": null,
      "zone_id": null
    },
    {
      "stop_id": "2968",
      "stop_lat": "12.948629952305",
      "stop_lon": "77.7081751686954",
      "stop_name": "Munnekolalu",
      "stop_code": null,
      "stop_desc": null,
      "stop_timezone": null,
      "stop_url": null,
      "wheelchair_boarding": null,
      "zone_id": null
    },
    {
      "stop_id": "1837",
      "stop_lat": "13.1656415416492",
      "stop_lon": "77.3342681467072",
      "stop_name": "Jakkanahalli Cross",
      "stop_code": null,
      "stop_desc": null,
      "stop_timezone": null,
      "stop_url": null,
      "wheelchair_boarding": null,
      "zone_id": null
    },
    {
      "stop_id": "2967",
      "stop_lat": "12.8458545609568",
      "stop_lon": "77.6094827099398",
      "stop_name": "Muniswera devastanna",
      "stop_code": null,
      "stop_desc": null,
      "stop_timezone": null,
      "stop_url": null,
      "wheelchair_boarding": null,
      "zone_id": null
    },
    {
      "stop_id": "3240",
      "stop_lat": "12.9570045276214",
      "stop_lon": "77.5117203713844",
      "stop_name": "Nrupathunga Nagara",
      "stop_code": null,
      "stop_desc": null,
      "stop_timezone": null,
      "stop_url": null,
      "wheelchair_boarding": null,
      "zone_id": null
    },
    {
      "stop_id": "3241",
      "stop_lat": "12.9580731131",
      "stop_lon": "77.5099148601",
      "stop_name": "Nrupatunga Nagar",
      "stop_code": null,
      "stop_desc": null,
      "stop_timezone": null,
      "stop_url": null,
      "wheelchair_boarding": null,
      "zone_id": null
    },
    {
      "stop_id": "571",
      "stop_lat": "12.9823661685304",
      "stop_lon": "77.6346814233588",
      "stop_name": "BMTC Depot-6",
      "stop_code": null,
      "stop_desc": null,
      "stop_timezone": null,
      "stop_url": null,
      "wheelchair_boarding": null,
      "zone_id": null
    },
    {
      "stop_id": "2111",
      "stop_lat": "13.0347334034184",
      "stop_lon": "77.7589116396851",
      "stop_name": "Kajisonnenahalli gate",
      "stop_code": null,
      "stop_desc": null,
      "stop_timezone": null,
      "stop_url": null,
      "wheelchair_boarding": null,
      "zone_id": null
    },
    {
      "stop_id": "3243",
      "stop_lat": "13.0252156095954",
      "stop_lon": "77.5113073997503",
      "stop_name": "NTTF",
      "stop_code": null,
      "stop_desc": null,
      "stop_timezone": null,
      "stop_url": null,
      "wheelchair_boarding": null,
      "zone_id": null
    },
    {
      "stop_id": "3244",
      "stop_lat": "13.02503",
      "stop_lon": "77.51109",
      "stop_name": "NTTF Cross",
      "stop_code": null,
      "stop_desc": null,
      "stop_timezone": null,
      "stop_url": null,
      "wheelchair_boarding": null,
      "zone_id": null
    },
    {
      "stop_id": "2109",
      "stop_lat": "13.008274762",
      "stop_lon": "77.86582564",
      "stop_name": "Kajihosahalli",
      "stop_code": null,
      "stop_desc": null,
      "stop_timezone": null,
      "stop_url": null,
      "wheelchair_boarding": null,
      "zone_id": null
    },
    {
      "stop_id": "3237",
      "stop_lat": "12.9380218405",
      "stop_lon": "77.5698452163",
      "stop_name": "NRColony",
      "stop_code": null,
      "stop_desc": null,
      "stop_timezone": null,
      "stop_url": null,
      "wheelchair_boarding": null,
      "zone_id": null
    },
    {
      "stop_id": "573",
      "stop_lat": "12.9436622534157",
      "stop_lon": "77.6535672360799",
      "stop_name": "BNagasandra",
      "stop_code": null,
      "stop_desc": null,
      "stop_timezone": null,
      "stop_url": null,
      "wheelchair_boarding": null,
      "zone_id": null
    },
    {
      "stop_id": "2102",
      "stop_lat": "12.843017",
      "stop_lon": "77.727152",
      "stop_name": "Kaggalipura Gate",
      "stop_code": null,
      "stop_desc": null,
      "stop_timezone": null,
      "stop_url": null,
      "wheelchair_boarding": null,
      "zone_id": null
    },
    {
      "stop_id": "2995",
      "stop_lat": "13.040474",
      "stop_lon": "77.550033",
      "stop_name": "Muthyalanagar",
      "stop_code": null,
      "stop_desc": null,
      "stop_timezone": null,
      "stop_url": null,
      "wheelchair_boarding": null,
      "zone_id": null
    },
    {
      "stop_id": "3239",
      "stop_lat": "12.9569917290918",
      "stop_lon": "77.5115682838",
      "stop_name": "Nrupathunga Nagar",
      "stop_code": null,
      "stop_desc": null,
      "stop_timezone": null,
      "stop_url": null,
      "wheelchair_boarding": null,
      "zone_id": null
    },
    {
      "stop_id": "2107",
      "stop_lat": "13.0346833328378",
      "stop_lon": "77.7700896326402",
      "stop_name": "Kaji Sonnenahalli",
      "stop_code": null,
      "stop_desc": null,
      "stop_timezone": null,
      "stop_url": null,
      "wheelchair_boarding": null,
      "zone_id": null
    },
    {
      "stop_id": "2996",
      "stop_lat": "13.0435779245816",
      "stop_lon": "77.5532646091783",
      "stop_name": "Muthyalanagara",
      "stop_code": null,
      "stop_desc": null,
      "stop_timezone": null,
      "stop_url": null,
      "wheelchair_boarding": null,
      "zone_id": null
    },
    {
      "stop_id": "3238",
      "stop_lat": "13.030361",
      "stop_lon": "77.677529",
      "stop_name": "NRI Layout",
      "stop_code": null,
      "stop_desc": null,
      "stop_timezone": null,
      "stop_url": null,
      "wheelchair_boarding": null,
      "zone_id": null
    },
    {
      "stop_id": "2108",
      "stop_lat": "13.0346433911",
      "stop_lon": "77.759082187",
      "stop_name": "Kaji Sonnenahalli Gate",
      "stop_code": null,
      "stop_desc": null,
      "stop_timezone": null,
      "stop_url": null,
      "wheelchair_boarding": null,
      "zone_id": null
    },
    {
      "stop_id": "2997",
      "stop_lat": "13.0437342357",
      "stop_lon": "77.5532052107",
      "stop_name": "Muthyalangra",
      "stop_code": null,
      "stop_desc": null,
      "stop_timezone": null,
      "stop_url": null,
      "wheelchair_boarding": null,
      "zone_id": null
    },
    {
      "stop_id": "3250",
      "stop_lat": "12.9822041",
      "stop_lon": "77.56790264",
      "stop_name": "Okalipuram",
      "stop_code": null,
      "stop_desc": null,
      "stop_timezone": null,
      "stop_url": null,
      "wheelchair_boarding": null,
      "zone_id": null
    },
    {
      "stop_id": "3251",
      "stop_lat": "12.9950532728252",
      "stop_lon": "77.6438378383011",
      "stop_name": "Old Bayappanahalli",
      "stop_code": null,
      "stop_desc": null,
      "stop_timezone": null,
      "stop_url": null,
      "wheelchair_boarding": null,
      "zone_id": null
    },
    {
      "stop_id": "3255",
      "stop_lat": "12.92069",
      "stop_lon": "77.60533",
      "stop_name": "Old Gurrappana Palya",
      "stop_code": null,
      "stop_desc": null,
      "stop_timezone": null,
      "stop_url": null,
      "wheelchair_boarding": null,
      "zone_id": null
    },
    {
      "stop_id": "3252",
      "stop_lat": "12.9919551127",
      "stop_lon": "77.534378618",
      "stop_name": "Old Bus Stop",
      "stop_code": null,
      "stop_desc": null,
      "stop_timezone": null,
      "stop_url": null,
      "wheelchair_boarding": null,
      "zone_id": null
    },
    {
      "stop_id": "2122",
      "stop_lat": "12.83260399",
      "stop_lon": "77.58909187",
      "stop_name": "Kalkere",
      "stop_code": null,
      "stop_desc": null,
      "stop_timezone": null,
      "stop_url": null,
      "wheelchair_boarding": null,
      "zone_id": null
    },
    {
      "stop_id": "3253",
      "stop_lat": "12.99213",
      "stop_lon": "77.53403",
      "stop_name": "Old Bus Stop BEML",
      "stop_code": null,
      "stop_desc": null,
      "stop_timezone": null,
      "stop_url": null,
      "wheelchair_boarding": null,
      "zone_id": null
    },
    {
      "stop_id": "2121",
      "stop_lat": "12.94844524",
      "stop_lon": "77.5527819246",
      "stop_name": "Kalidasa Layout",
      "stop_code": null,
      "stop_desc": null,
      "stop_timezone": null,
      "stop_url": null,
      "wheelchair_boarding": null,
      "zone_id": null
    },
    {
      "stop_id": "3248",
      "stop_lat": "12.8178043077873",
      "stop_lon": "77.5205073442582",
      "stop_name": "OB Choodahalli",
      "stop_code": null,
      "stop_desc": null,
      "stop_timezone": null,
      "stop_url": null,
      "wheelchair_boarding": null,
      "zone_id": null
    },
    {
      "stop_id": "2112",
      "stop_lat": "12.8301288094",
      "stop_lon": "77.3630951811",
      "stop_name": "Kakaramana Halli",
      "stop_code": null,
      "stop_desc": null,
      "stop_timezone": null,
      "stop_url": null,
      "wheelchair_boarding": null,
      "zone_id": null
    },
    {
      "stop_id": "2983",
      "stop_lat": "12.9563032743393",
      "stop_lon": "77.8062738076182",
      "stop_name": "Muthkuru",
      "stop_code": null,
      "stop_desc": null,
      "stop_timezone": null,
      "stop_url": null,
      "wheelchair_boarding": null,
      "zone_id": null
    },
    {
      "stop_id": "3247",
      "stop_lat": "13.089132",
      "stop_lon": "77.665938",
      "stop_name": "Oasis School",
      "stop_code": null,
      "stop_desc": null,
      "stop_timezone": null,
      "stop_url": null,
      "wheelchair_boarding": null,
      "zone_id": null
    },
    {
      "stop_id": "2113",
      "stop_lat": "13.0610077032387",
      "stop_lon": "77.3800076894285",
      "stop_name": "Kakke Palya",
      "stop_code": null,
      "stop_desc": null,
      "stop_timezone": null,
      "stop_url": null,
      "wheelchair_boarding": null,
      "zone_id": null
    },
    {
      "stop_id": "2984",
      "stop_lat": "12.9376959897778",
      "stop_lon": "77.786436075385",
      "stop_name": "Muthsandra",
      "stop_code": null,
      "stop_desc": null,
      "stop_timezone": null,
      "stop_url": null,
      "wheelchair_boarding": null,
      "zone_id": null
    },
    {
      "stop_id": "3246",
      "stop_lat": "12.7991358005",
      "stop_lon": "77.6610832382",
      "stop_name": "O-MAX CIRCLE",
      "stop_code": null,
      "stop_desc": null,
      "stop_timezone": null,
      "stop_url": null,
      "wheelchair_boarding": null,
      "zone_id": null
    },
    {
      "stop_id": "585",
      "stop_lat": "12.8992453124",
      "stop_lon": "77.6267751027",
      "stop_name": "Bommana Halli Devasthana",
      "stop_code": null,
      "stop_desc": null,
      "stop_timezone": null,
      "stop_url": null,
      "wheelchair_boarding": null,
      "zone_id": null
    },
    {
      "stop_id": "2114",
      "stop_lat": "13.2150548618778",
      "stop_lon": "77.5280091710159",
      "stop_name": "Kakkehalli",
      "stop_code": null,
      "stop_desc": null,
      "stop_timezone": null,
      "stop_url": null,
      "wheelchair_boarding": null,
      "zone_id": null
    },
    {
      "stop_id": "2981",
      "stop_lat": "13.1429847882703",
      "stop_lon": "77.5023724503974",
      "stop_name": "Muthkur Cross Hesaraghatta",
      "stop_code": null,
      "stop_desc": null,
      "stop_timezone": null,
      "stop_url": null,
      "wheelchair_boarding": null,
      "zone_id": null
    },
    {
      "stop_id": "2115",
      "stop_lat": "13.1839562179787",
      "stop_lon": "77.5187081476271",
      "stop_name": "Kakolu",
      "stop_code": null,
      "stop_desc": null,
      "stop_timezone": null,
      "stop_url": null,
      "wheelchair_boarding": null,
      "zone_id": null
    },
    {
      "stop_id": "2982",
      "stop_lat": "13.1562762894",
      "stop_lon": "77.50917105",
      "stop_name": "Muthkur Hesaraghatta",
      "stop_code": null,
      "stop_desc": null,
      "stop_timezone": null,
      "stop_url": null,
      "wheelchair_boarding": null,
      "zone_id": null
    },
    {
      "stop_id": "587",
      "stop_lat": "12.90483535",
      "stop_lon": "77.63007568",
      "stop_name": "Bommanahalli",
      "stop_code": null,
      "stop_desc": null,
      "stop_timezone": null,
      "stop_url": null,
      "wheelchair_boarding": null,
      "zone_id": null
    },
    {
      "stop_id": "2116",
      "stop_lat": "12.960413",
      "stop_lon": "77.701317",
      "stop_name": "Kala Mandir Marathalli",
      "stop_code": null,
      "stop_desc": null,
      "stop_timezone": null,
      "stop_url": null,
      "wheelchair_boarding": null,
      "zone_id": null
    },
    {
      "stop_id": "2987",
      "stop_lat": "12.8593826573",
      "stop_lon": "77.4012319185",
      "stop_name": "Muthurayana Pura",
      "stop_code": null,
      "stop_desc": null,
      "stop_timezone": null,
      "stop_url": null,
      "wheelchair_boarding": null,
      "zone_id": null
    },
    {
      "stop_id": "588",
      "stop_lat": "12.905328",
      "stop_lon": "77.630091",
      "stop_name": "Bommanahalli Hosur Road",
      "stop_code": null,
      "stop_desc": null,
      "stop_timezone": null,
      "stop_url": null,
      "wheelchair_boarding": null,
      "zone_id": null
    },
    {
      "stop_id": "2117",
      "stop_lat": "13.1038588152216",
      "stop_lon": "77.5166478452431",
      "stop_name": "Kalathammanahalli",
      "stop_code": null,
      "stop_desc": null,
      "stop_timezone": null,
      "stop_url": null,
      "wheelchair_boarding": null,
      "zone_id": null
    },
    {
      "stop_id": "2988",
      "stop_lat": "12.8486861754",
      "stop_lon": "77.3678581137",
      "stop_name": "Muthurayanagudi Palya",
      "stop_code": null,
      "stop_desc": null,
      "stop_timezone": null,
      "stop_url": null,
      "wheelchair_boarding": null,
      "zone_id": null
    },
    {
      "stop_id": "589",
      "stop_lat": "12.761538",
      "stop_lon": "77.635183",
      "stop_name": "Bommandanahalli",
      "stop_code": null,
      "stop_desc": null,
      "stop_timezone": null,
      "stop_url": null,
      "wheelchair_boarding": null,
      "zone_id": null
    },
    {
      "stop_id": "2118",
      "stop_lat": "12.8659809",
      "stop_lon": "77.59177188",
      "stop_name": "Kalena Agrahara",
      "stop_code": null,
      "stop_desc": null,
      "stop_timezone": null,
      "stop_url": null,
      "wheelchair_boarding": null,
      "zone_id": null
    },
    {
      "stop_id": "2985",
      "stop_lat": "12.9293740021361",
      "stop_lon": "77.8204844470362",
      "stop_name": "Muthugadahalli",
      "stop_code": null,
      "stop_desc": null,
      "stop_timezone": null,
      "stop_url": null,
      "wheelchair_boarding": null,
      "zone_id": null
    },
    {
      "stop_id": "3249",
      "stop_lat": "12.9561863564118",
      "stop_lon": "77.8241890800112",
      "stop_name": "Obalapura",
      "stop_code": null,
      "stop_desc": null,
      "stop_timezone": null,
      "stop_url": null,
      "wheelchair_boarding": null,
      "zone_id": null
    },
    {
      "stop_id": "2119",
      "stop_lat": "13.1470832160225",
      "stop_lon": "77.5120032099396",
      "stop_name": "Kalenahalli",
      "stop_code": null,
      "stop_desc": null,
      "stop_timezone": null,
      "stop_url": null,
      "wheelchair_boarding": null,
      "zone_id": null
    },
    {
      "stop_id": "2986",
      "stop_lat": "12.72311",
      "stop_lon": "77.48432",
      "stop_name": "Muthugadahalli Cross",
      "stop_code": null,
      "stop_desc": null,
      "stop_timezone": null,
      "stop_url": null,
      "wheelchair_boarding": null,
      "zone_id": null
    },
    {
      "stop_id": "2133",
      "stop_lat": "12.9459258076",
      "stop_lon": "77.3180944193",
      "stop_name": "Kallur",
      "stop_code": null,
      "stop_desc": null,
      "stop_timezone": null,
      "stop_url": null,
      "wheelchair_boarding": null,
      "zone_id": null
    },
    {
      "stop_id": "3264",
      "stop_lat": "13.010456",
      "stop_lon": "77.56445",
      "stop_name": "Orian Mall Yeshwanthapura",
      "stop_code": null,
      "stop_desc": null,
      "stop_timezone": null,
      "stop_url": null,
      "wheelchair_boarding": null,
      "zone_id": null
    }
  ]